[
    {
        "name": "24h fitness",
        "sportObjectType": "GYM",
        "services": [],
        "working": true,
        "location": {
            "longitude": 420.0,
            "latitude": 69.0,
            "streetName": "Maksima Gorkog",
            "streetNumber": 1312,
            "city": "Novi Sad",
            "zipCode": 21000
        },
        "logo": null,
        "averageScore": 4.0,
        "startTime": null,
        "endTime": null
    },
    {
        "name": "Sajmiste",
        "sportObjectType": "POOL",
        "services": [],
        "working": true,
        "location": {
            "longitude": 420.0,
            "latitude": 69.0,
            "streetName": "Maksima Gorkog",
            "streetNumber": 1312,
            "city": "Sajmiste",
            "zipCode": 21000
        },
        "logo": null,
        "averageScore": 3.0,
        "startTime": null,
        "endTime": null
    },
    {
        "name": "NonStop",
        "sportObjectType": "SPORT_CENTER",
        "services": [],
        "working": true,
        "location": {
            "longitude": 420.0,
            "latitude": 69.0,
            "streetName": "Maksima Gorkog",
            "streetNumber": 1312,
            "city": "Teslic",
            "zipCode": 21000
        },
        "logo": null,
        "averageScore": 5.0,
        "startTime": null,
        "endTime": null
    },
    {
        "name": "NonStop2",
        "sportObjectType": "SPORT_CENTER",
        "services": [],
        "working": true,
        "location": {
            "longitude": 420.0,
            "latitude": 69.0,
            "streetName": "Maksima Gorkog",
            "streetNumber": 1312,
            "city": "Teslic",
            "zipCode": 21000
        },
        "logo": null,
        "averageScore": 1.0,
        "startTime": null,
        "endTime": null
    }
]